[{"id":4,"parentId":5501,"name":"Afghanistan","iso3":"AFG","iso2":"AF","locationTypeId":4,"locationType":"Country","longitude":67.7099533081,"latitude":33.9391098022},{"id":8,"parentId":925,"name":"Albania","iso3":"ALB","iso2":"AL","locationTypeId":4,"locationType":"Country","longitude":20.1683311462,"latitude":41.1533317566},{"id":12,"parentId":912,"name":"Algeria","iso3":"DZA","iso2":"DZ","locationTypeId":4,"locationType":"Country","longitude":1.6596260071,"latitude":28.0338859558},{"id":16,"parentId":957,"name":"American Samoa","iso3":"ASM","iso2":"AS","locationTypeId":4,"locationType":"Country","longitude":-170.696182251,"latitude":-14.3060207367},{"id":20,"parentId":925,"name":"Andorra","iso3":"AND","iso2":"AD","locationTypeId":4,"locationType":"Country","longitude":1.5218009949,"latitude":42.5062866211},{"id":24,"parentId":911,"name":"Angola","iso3":"AGO","iso2":"AO","locationTypeId":4,"locationType":"Country","longitude":17.8738861084,"latitude":-11.2026920319},{"id":28,"parentId":915,"name":"Antigua and Barbuda","iso3":"ATG","iso2":"AG","locationTypeId":4,"locationType":"Country","longitude":-61.78918,"latitude":17.07867},{"id":31,"parentId":922,"name":"Azerbaijan","iso3":"AZE","iso2":"AZ","locationTypeId":4,"locationType":"Country","longitude":47.5769271851,"latitude":40.1431045532},{"id":32,"parentId":931,"name":"Argentina","iso3":"ARG","iso2":"AR","locationTypeId":4,"locationType":"Country","longitude":-63.6166725159,"latitude":-38.4160957336},{"id":36,"parentId":927,"name":"Australia","iso3":"AUS","iso2":"AU","locationTypeId":4,"locationType":"Country","longitude":133.7751312256,"latitude":-25.2743988037},{"id":40,"parentId":926,"name":"Austria","iso3":"AUT","iso2":"AT","locationTypeId":4,"locationType":"Country","longitude":14.5500717163,"latitude":47.5162315369},{"id":44,"parentId":915,"name":"Bahamas","iso3":"BHS","iso2":"BS","locationTypeId":4,"locationType":"Country","longitude":-77.3962783813,"latitude":25.034280777},{"id":48,"parentId":922,"name":"Bahrain","iso3":"BHR","iso2":"BH","locationTypeId":4,"locationType":"Country","longitude":50.5577011108,"latitude":26.0666999817},{"id":50,"parentId":5501,"name":"Bangladesh","iso3":"BGD","iso2":"BD","locationTypeId":4,"locationType":"Country","longitude":90.3563308716,"latitude":23.6849937439},{"id":51,"parentId":922,"name":"Armenia","iso3":"ARM","iso2":"AM","locationTypeId":4,"locationType":"Country","longitude":45.0381889343,"latitude":40.0690994263},{"id":52,"parentId":915,"name":"Barbados","iso3":"BRB","iso2":"BB","locationTypeId":4,"locationType":"Country","longitude":-59.55643,"latitude":13.16705},{"id":56,"parentId":926,"name":"Belgium","iso3":"BEL","iso2":"BE","locationTypeId":4,"locationType":"Country","longitude":4.469935894,"latitude":50.5038871765},{"id":60,"parentId":905,"name":"Bermuda","iso3":"BMU","iso2":"BM","locationTypeId":4,"locationType":"Country","longitude":-64.75050354,"latitude":32.307800293},{"id":64,"parentId":5501,"name":"Bhutan","iso3":"BTN","iso2":"BT","locationTypeId":4,"locationType":"Country","longitude":90.4336013794,"latitude":27.5141620636},{"id":68,"parentId":931,"name":"Bolivia (Plurinational State of)","iso3":"BOL","iso2":"BO","locationTypeId":4,"locationType":"Country","longitude":-63.5886535645,"latitude":-16.2901535034},{"id":70,"parentId":925,"name":"Bosnia and Herzegovina","iso3":"BIH","iso2":"BA","locationTypeId":4,"locationType":"Country","longitude":17.6790752411,"latitude":43.9158859253},{"id":72,"parentId":913,"name":"Botswana","iso3":"BWA","iso2":"BW","locationTypeId":4,"locationType":"Country","longitude":24.6848659515,"latitude":-22.3284740448},{"id":76,"parentId":931,"name":"Brazil","iso3":"BRA","iso2":"BR","locationTypeId":4,"locationType":"Country","longitude":-51.9252815247,"latitude":-14.235004425},{"id":84,"parentId":916,"name":"Belize","iso3":"BLZ","iso2":"BZ","locationTypeId":4,"locationType":"Country","longitude":-88.4976501465,"latitude":17.1898765564},{"id":90,"parentId":928,"name":"Solomon Islands","iso3":"SLB","iso2":"SB","locationTypeId":4,"locationType":"Country","longitude":160.1561889648,"latitude":-9.6457099915},{"id":92,"parentId":915,"name":"British Virgin Islands","iso3":"VGB","iso2":"VG","locationTypeId":4,"locationType":"Country","longitude":-64.6399688721,"latitude":18.4206943512},{"id":96,"parentId":920,"name":"Brunei Darussalam","iso3":"BRN","iso2":"BN","locationTypeId":4,"locationType":"Country","longitude":114.7276687622,"latitude":4.5352768898},{"id":100,"parentId":923,"name":"Bulgaria","iso3":"BGR","iso2":"BG","locationTypeId":4,"locationType":"Country","longitude":25.485830307,"latitude":42.7338829041},{"id":104,"parentId":920,"name":"Myanmar","iso3":"MMR","iso2":"MM","locationTypeId":4,"locationType":"Country","longitude":95.9559707642,"latitude":21.9162216187},{"id":108,"parentId":910,"name":"Burundi","iso3":"BDI","iso2":"BI","locationTypeId":4,"locationType":"Country","longitude":29.9188861847,"latitude":-3.3730559349},{"id":112,"parentId":923,"name":"Belarus","iso3":"BLR","iso2":"BY","locationTypeId":4,"locationType":"Country","longitude":27.9533882141,"latitude":53.7098083496},{"id":116,"parentId":920,"name":"Cambodia","iso3":"KHM","iso2":"KH","locationTypeId":4,"locationType":"Country","longitude":104.9909667969,"latitude":12.5656785965},{"id":120,"parentId":911,"name":"Cameroon","iso3":"CMR","iso2":"CM","locationTypeId":4,"locationType":"Country","longitude":12.354722023,"latitude":7.3697218895},{"id":124,"parentId":905,"name":"Canada","iso3":"CAN","iso2":"CA","locationTypeId":4,"locationType":"Country","longitude":-106.3467712402,"latitude":56.1303672791},{"id":132,"parentId":914,"name":"Cabo Verde","iso3":"CPV","iso2":"CV","locationTypeId":4,"locationType":"Country","longitude":-23.605173111,"latitude":15.120141983},{"id":136,"parentId":915,"name":"Cayman Islands","iso3":"CYM","iso2":"KY","locationTypeId":4,"locationType":"Country","longitude":-81.2546005249,"latitude":19.3132991791},{"id":140,"parentId":911,"name":"Central African Republic","iso3":"CAF","iso2":"CF","locationTypeId":4,"locationType":"Country","longitude":20.9394435883,"latitude":6.6111111641},{"id":144,"parentId":5501,"name":"Sri Lanka","iso3":"LKA","iso2":"LK","locationTypeId":4,"locationType":"Country","longitude":80.7717971802,"latitude":7.8730540276},{"id":148,"parentId":911,"name":"Chad","iso3":"TCD","iso2":"TD","locationTypeId":4,"locationType":"Country","longitude":18.7322063446,"latitude":15.4541664124},{"id":152,"parentId":931,"name":"Chile","iso3":"CHL","iso2":"CL","locationTypeId":4,"locationType":"Country","longitude":-71.54296875,"latitude":-35.6751480103},{"id":156,"parentId":906,"name":"China","iso3":"CHN","iso2":"CN","locationTypeId":4,"locationType":"Country","longitude":104.1953964233,"latitude":35.8616600037},{"id":158,"parentId":906,"name":"China, Taiwan Province of China","iso3":"TWN","iso2":"TW","locationTypeId":4,"locationType":"Country","longitude":120.9605178833,"latitude":23.6978092194},{"id":170,"parentId":931,"name":"Colombia","iso3":"COL","iso2":"CO","locationTypeId":4,"locationType":"Country","longitude":-74.2973327637,"latitude":4.5708680153},{"id":174,"parentId":910,"name":"Comoros","iso3":"COM","iso2":"KM","locationTypeId":4,"locationType":"Country","longitude":43.3333015442,"latitude":-11.6455001831},{"id":175,"parentId":910,"name":"Mayotte","iso3":"MYT","iso2":"YT","locationTypeId":4,"locationType":"Country","longitude":45.1662445068,"latitude":-12.8275003433},{"id":178,"parentId":911,"name":"Congo","iso3":"COG","iso2":"CG","locationTypeId":4,"locationType":"Country","longitude":15.8276586533,"latitude":-0.2280209959},{"id":180,"parentId":911,"name":"Dem. Rep. of the Congo","iso3":"COD","iso2":"CD","locationTypeId":4,"locationType":"Country","longitude":21.7586631775,"latitude":-4.0383329391},{"id":184,"parentId":957,"name":"Cook Islands","iso3":"COK","iso2":"CK","locationTypeId":4,"locationType":"Country","longitude":-159.7776641846,"latitude":-21.2367362976},{"id":188,"parentId":916,"name":"Costa Rica","iso3":"CRI","iso2":"CR","locationTypeId":4,"locationType":"Country","longitude":-83.7534255981,"latitude":9.748916626},{"id":191,"parentId":925,"name":"Croatia","iso3":"HRV","iso2":"HR","locationTypeId":4,"locationType":"Country","longitude":15.1999998093,"latitude":45.0999984741},{"id":192,"parentId":915,"name":"Cuba","iso3":"CUB","iso2":"CU","locationTypeId":4,"locationType":"Country","longitude":-77.7811660767,"latitude":21.5217571259},{"id":196,"parentId":922,"name":"Cyprus","iso3":"CYP","iso2":"CY","locationTypeId":4,"locationType":"Country","longitude":33.4298591614,"latitude":35.126411438},{"id":203,"parentId":923,"name":"Czechia","iso3":"CZE","iso2":"CZ","locationTypeId":4,"locationType":"Country","longitude":15.4729623795,"latitude":49.8174934387},{"id":204,"parentId":914,"name":"Benin","iso3":"BEN","iso2":"BJ","locationTypeId":4,"locationType":"Country","longitude":2.3158340454,"latitude":9.3076896667},{"id":208,"parentId":924,"name":"Denmark","iso3":"DNK","iso2":"DK","locationTypeId":4,"locationType":"Country","longitude":9.5017852783,"latitude":56.2639198303},{"id":212,"parentId":915,"name":"Dominica","iso3":"DMA","iso2":"DM","locationTypeId":4,"locationType":"Country","longitude":-61.3709754944,"latitude":15.4149990082},{"id":214,"parentId":915,"name":"Dominican Republic","iso3":"DOM","iso2":"DO","locationTypeId":4,"locationType":"Country","longitude":-70.162651062,"latitude":18.7356929779},{"id":218,"parentId":931,"name":"Ecuador","iso3":"ECU","iso2":"EC","locationTypeId":4,"locationType":"Country","longitude":-78.1834030151,"latitude":-1.8312389851},{"id":222,"parentId":916,"name":"El Salvador","iso3":"SLV","iso2":"SV","locationTypeId":4,"locationType":"Country","longitude":-88.8965301514,"latitude":13.7941846848},{"id":226,"parentId":911,"name":"Equatorial Guinea","iso3":"GNQ","iso2":"GQ","locationTypeId":4,"locationType":"Country","longitude":10.2678947449,"latitude":1.6508009434},{"id":231,"parentId":910,"name":"Ethiopia","iso3":"ETH","iso2":"ET","locationTypeId":4,"locationType":"Country","longitude":40.4896736145,"latitude":9.1450004578},{"id":232,"parentId":910,"name":"Eritrea","iso3":"ERI","iso2":"ER","locationTypeId":4,"locationType":"Country","longitude":39.782333374,"latitude":15.1793842316},{"id":233,"parentId":924,"name":"Estonia","iso3":"EST","iso2":"EE","locationTypeId":4,"locationType":"Country","longitude":25.0136070251,"latitude":58.5952720642},{"id":234,"parentId":924,"name":"Faroe Islands","iso3":"FRO","iso2":"FO","locationTypeId":4,"locationType":"Country","longitude":-6.9118061066,"latitude":61.8926353455},{"id":238,"parentId":931,"name":"Falkland Islands (Malvinas)","iso3":"FLK","iso2":"FK","locationTypeId":4,"locationType":"Country","longitude":-59.5236129761,"latitude":-51.7962532043},{"id":242,"parentId":928,"name":"Fiji","iso3":"FJI","iso2":"FJ","locationTypeId":4,"locationType":"Country","longitude":178.065032959,"latitude":-17.7133712769},{"id":246,"parentId":924,"name":"Finland","iso3":"FIN","iso2":"FI","locationTypeId":4,"locationType":"Country","longitude":25.7481517792,"latitude":61.9241104126},{"id":250,"parentId":926,"name":"France","iso3":"FRA","iso2":"FR","locationTypeId":4,"locationType":"Country","longitude":2.2137489319,"latitude":46.2276382446},{"id":254,"parentId":931,"name":"French Guiana","iso3":"GUF","iso2":"GF","locationTypeId":4,"locationType":"Country","longitude":-53.1257820129,"latitude":3.9338889122},{"id":258,"parentId":957,"name":"French Polynesia","iso3":"PYF","iso2":"PF","locationTypeId":4,"locationType":"Country","longitude":-149.4068450928,"latitude":-17.6797428131},{"id":262,"parentId":910,"name":"Djibouti","iso3":"DJI","iso2":"DJ","locationTypeId":4,"locationType":"Country","longitude":42.5902748108,"latitude":11.825138092},{"id":266,"parentId":911,"name":"Gabon","iso3":"GAB","iso2":"GA","locationTypeId":4,"locationType":"Country","longitude":11.6094436646,"latitude":-0.803689003},{"id":268,"parentId":922,"name":"Georgia","iso3":"GEO","iso2":"GE","locationTypeId":4,"locationType":"Country","longitude":43.3568916321,"latitude":42.3154067993},{"id":270,"parentId":914,"name":"Gambia","iso3":"GMB","iso2":"GM","locationTypeId":4,"locationType":"Country","longitude":-15.3101387024,"latitude":13.4431819916},{"id":275,"parentId":922,"name":"State of Palestine","iso3":"PSE","iso2":"PS","locationTypeId":4,"locationType":"Country","longitude":35.2331542969,"latitude":31.9521617889},{"id":276,"parentId":926,"name":"Germany","iso3":"DEU","iso2":"DE","locationTypeId":4,"locationType":"Country","longitude":10.4515256882,"latitude":51.1656913757},{"id":288,"parentId":914,"name":"Ghana","iso3":"GHA","iso2":"GH","locationTypeId":4,"locationType":"Country","longitude":-1.0231939554,"latitude":7.9465270042},{"id":292,"parentId":925,"name":"Gibraltar","iso3":"GIB","iso2":"GI","locationTypeId":4,"locationType":"Country","longitude":-5.3535847664,"latitude":36.140750885},{"id":296,"parentId":954,"name":"Kiribati","iso3":"KIR","iso2":"KI","locationTypeId":4,"locationType":"Country","longitude":-157.3630218506,"latitude":1.8708833456},{"id":300,"parentId":925,"name":"Greece","iso3":"GRC","iso2":"GR","locationTypeId":4,"locationType":"Country","longitude":21.8243122101,"latitude":39.0742073059},{"id":304,"parentId":905,"name":"Greenland","iso3":"GRL","iso2":"GL","locationTypeId":4,"locationType":"Country","longitude":-42.6043014526,"latitude":71.7069396973},{"id":308,"parentId":915,"name":"Grenada","iso3":"GRD","iso2":"GD","locationTypeId":4,"locationType":"Country","longitude":-61.68982,"latitude":12.09227},{"id":312,"parentId":915,"name":"Guadeloupe","iso3":"GLP","iso2":"GP","locationTypeId":4,"locationType":"Country","longitude":-61.66461,"latitude":16.17588},{"id":316,"parentId":954,"name":"Guam","iso3":"GUM","iso2":"GU","locationTypeId":4,"locationType":"Country","longitude":144.7937316895,"latitude":13.4443044662},{"id":320,"parentId":916,"name":"Guatemala","iso3":"GTM","iso2":"GT","locationTypeId":4,"locationType":"Country","longitude":-90.230758667,"latitude":15.7834711075},{"id":324,"parentId":914,"name":"Guinea","iso3":"GIN","iso2":"GN","locationTypeId":4,"locationType":"Country","longitude":-9.696644783,"latitude":9.9455871582},{"id":328,"parentId":931,"name":"Guyana","iso3":"GUY","iso2":"GY","locationTypeId":4,"locationType":"Country","longitude":-58.9301795959,"latitude":4.8604159355},{"id":332,"parentId":915,"name":"Haiti","iso3":"HTI","iso2":"HT","locationTypeId":4,"locationType":"Country","longitude":-72.2852172852,"latitude":18.9711875916},{"id":340,"parentId":916,"name":"Honduras","iso3":"HND","iso2":"HN","locationTypeId":4,"locationType":"Country","longitude":-86.2419052124,"latitude":15.1999988556},{"id":344,"parentId":906,"name":"China, Hong Kong SAR","iso3":"HKG","iso2":"HK","locationTypeId":4,"locationType":"Country","longitude":114.1094970703,"latitude":22.3964271545},{"id":348,"parentId":923,"name":"Hungary","iso3":"HUN","iso2":"HU","locationTypeId":4,"locationType":"Country","longitude":19.5033035278,"latitude":47.1624946594},{"id":352,"parentId":924,"name":"Iceland","iso3":"ISL","iso2":"IS","locationTypeId":4,"locationType":"Country","longitude":-19.0208358765,"latitude":64.9630508423},{"id":356,"parentId":5501,"name":"India","iso3":"IND","iso2":"IN","locationTypeId":4,"locationType":"Country","longitude":78.9628829956,"latitude":20.5936832428},{"id":360,"parentId":920,"name":"Indonesia","iso3":"IDN","iso2":"ID","locationTypeId":4,"locationType":"Country","longitude":113.9213256836,"latitude":-0.7892749906},{"id":364,"parentId":5501,"name":"Iran (Islamic Republic of)","iso3":"IRN","iso2":"IR","locationTypeId":4,"locationType":"Country","longitude":53.6880455017,"latitude":32.4279098511},{"id":368,"parentId":922,"name":"Iraq","iso3":"IRQ","iso2":"IQ","locationTypeId":4,"locationType":"Country","longitude":43.6792907715,"latitude":33.2231903076},{"id":372,"parentId":924,"name":"Ireland","iso3":"IRL","iso2":"IE","locationTypeId":4,"locationType":"Country","longitude":-8.2438898087,"latitude":53.4129104614},{"id":376,"parentId":922,"name":"Israel","iso3":"ISR","iso2":"IL","locationTypeId":4,"locationType":"Country","longitude":34.8516120911,"latitude":31.0460510254},{"id":380,"parentId":925,"name":"Italy","iso3":"ITA","iso2":"IT","locationTypeId":4,"locationType":"Country","longitude":12.5673799515,"latitude":41.8719406128},{"id":384,"parentId":914,"name":"C\u00f4te d'Ivoire","iso3":"CIV","iso2":"CI","locationTypeId":4,"locationType":"Country","longitude":-5.54708004,"latitude":7.5399889946},{"id":388,"parentId":915,"name":"Jamaica","iso3":"JAM","iso2":"JM","locationTypeId":4,"locationType":"Country","longitude":-77.2975082397,"latitude":18.1095809937},{"id":392,"parentId":906,"name":"Japan","iso3":"JPN","iso2":"JP","locationTypeId":4,"locationType":"Country","longitude":138.2529296875,"latitude":36.2048225403},{"id":398,"parentId":5500,"name":"Kazakhstan","iso3":"KAZ","iso2":"KZ","locationTypeId":4,"locationType":"Country","longitude":66.9236831665,"latitude":48.0195732117},{"id":400,"parentId":922,"name":"Jordan","iso3":"JOR","iso2":"JO","locationTypeId":4,"locationType":"Country","longitude":36.2384147644,"latitude":30.5851631165},{"id":404,"parentId":910,"name":"Kenya","iso3":"KEN","iso2":"KE","locationTypeId":4,"locationType":"Country","longitude":37.9061927795,"latitude":-0.0235590003},{"id":408,"parentId":906,"name":"Dem. People's Rep. of Korea","iso3":"PRK","iso2":"KP","locationTypeId":4,"locationType":"Country","longitude":127.510093689,"latitude":40.3398513794},{"id":410,"parentId":906,"name":"Republic of Korea","iso3":"KOR","iso2":"KR","locationTypeId":4,"locationType":"Country","longitude":127.7669219971,"latitude":35.9077568054},{"id":414,"parentId":922,"name":"Kuwait","iso3":"KWT","iso2":"KW","locationTypeId":4,"locationType":"Country","longitude":47.4817657471,"latitude":29.3116607666},{"id":417,"parentId":5500,"name":"Kyrgyzstan","iso3":"KGZ","iso2":"KG","locationTypeId":4,"locationType":"Country","longitude":74.7660980225,"latitude":41.2043800354},{"id":418,"parentId":920,"name":"Lao People's Dem. Republic","iso3":"LAO","iso2":"LA","locationTypeId":4,"locationType":"Country","longitude":102.4954986572,"latitude":19.8562698364},{"id":422,"parentId":922,"name":"Lebanon","iso3":"LBN","iso2":"LB","locationTypeId":4,"locationType":"Country","longitude":35.862285614,"latitude":33.8547210693},{"id":426,"parentId":913,"name":"Lesotho","iso3":"LSO","iso2":"LS","locationTypeId":4,"locationType":"Country","longitude":28.2336082458,"latitude":-29.6099872589},{"id":428,"parentId":924,"name":"Latvia","iso3":"LVA","iso2":"LV","locationTypeId":4,"locationType":"Country","longitude":24.6031894684,"latitude":56.8796348572},{"id":430,"parentId":914,"name":"Liberia","iso3":"LBR","iso2":"LR","locationTypeId":4,"locationType":"Country","longitude":-9.4294986725,"latitude":6.4280548096},{"id":434,"parentId":912,"name":"Libya","iso3":"LBY","iso2":"LY","locationTypeId":4,"locationType":"Country","longitude":17.2283306122,"latitude":26.335100174},{"id":438,"parentId":926,"name":"Liechtenstein","iso3":"LIE","iso2":"LI","locationTypeId":4,"locationType":"Country","longitude":9.5553731918,"latitude":47.1660003662},{"id":440,"parentId":924,"name":"Lithuania","iso3":"LTU","iso2":"LT","locationTypeId":4,"locationType":"Country","longitude":23.881275177,"latitude":55.1694374084},{"id":442,"parentId":926,"name":"Luxembourg","iso3":"LUX","iso2":"LU","locationTypeId":4,"locationType":"Country","longitude":6.1295828819,"latitude":49.8152732849},{"id":446,"parentId":906,"name":"China, Macao SAR","iso3":"MAC","iso2":"MO","locationTypeId":4,"locationType":"Country","longitude":113.5438766479,"latitude":22.1987457275},{"id":450,"parentId":910,"name":"Madagascar","iso3":"MDG","iso2":"MG","locationTypeId":4,"locationType":"Country","longitude":46.8691062927,"latitude":-18.7669467926},{"id":454,"parentId":910,"name":"Malawi","iso3":"MWI","iso2":"MW","locationTypeId":4,"locationType":"Country","longitude":34.301525116,"latitude":-13.2543077469},{"id":458,"parentId":920,"name":"Malaysia","iso3":"MYS","iso2":"MY","locationTypeId":4,"locationType":"Country","longitude":101.975769043,"latitude":4.2104840279},{"id":462,"parentId":5501,"name":"Maldives","iso3":"MDV","iso2":"MV","locationTypeId":4,"locationType":"Country","longitude":73.5361099243,"latitude":1.9772468805},{"id":466,"parentId":914,"name":"Mali","iso3":"MLI","iso2":"ML","locationTypeId":4,"locationType":"Country","longitude":-3.9961659908,"latitude":17.5706920624},{"id":470,"parentId":925,"name":"Malta","iso3":"MLT","iso2":"MT","locationTypeId":4,"locationType":"Country","longitude":14.375415802,"latitude":35.9374961853},{"id":474,"parentId":915,"name":"Martinique","iso3":"MTQ","iso2":"MQ","locationTypeId":4,"locationType":"Country","longitude":-61.02442,"latitude":14.63115},{"id":478,"parentId":914,"name":"Mauritania","iso3":"MRT","iso2":"MR","locationTypeId":4,"locationType":"Country","longitude":-10.9408349991,"latitude":21.0078907013},{"id":480,"parentId":910,"name":"Mauritius","iso3":"MUS","iso2":"MU","locationTypeId":4,"locationType":"Country","longitude":57.5521507263,"latitude":-20.3484039307},{"id":484,"parentId":916,"name":"Mexico","iso3":"MEX","iso2":"MX","locationTypeId":4,"locationType":"Country","longitude":-102.5527877808,"latitude":23.6345005035},{"id":492,"parentId":926,"name":"Monaco","iso3":"MCO","iso2":"MC","locationTypeId":4,"locationType":"Country","longitude":7.42461586,"latitude":43.7384185791},{"id":496,"parentId":906,"name":"Mongolia","iso3":"MNG","iso2":"MN","locationTypeId":4,"locationType":"Country","longitude":103.8466567993,"latitude":46.8624954224},{"id":498,"parentId":923,"name":"Republic of Moldova","iso3":"MDA","iso2":"MD","locationTypeId":4,"locationType":"Country","longitude":28.369884491,"latitude":47.4116325378},{"id":499,"parentId":925,"name":"Montenegro","iso3":"MNE","iso2":"ME","locationTypeId":4,"locationType":"Country","longitude":19.3743896484,"latitude":42.7086791992},{"id":500,"parentId":915,"name":"Montserrat","iso3":"MSR","iso2":"MS","locationTypeId":4,"locationType":"Country","longitude":-62.1873664856,"latitude":16.7424983978},{"id":504,"parentId":912,"name":"Morocco","iso3":"MAR","iso2":"MA","locationTypeId":4,"locationType":"Country","longitude":-7.0926198959,"latitude":31.7917022705},{"id":508,"parentId":910,"name":"Mozambique","iso3":"MOZ","iso2":"MZ","locationTypeId":4,"locationType":"Country","longitude":35.5295639038,"latitude":-18.6656951904},{"id":512,"parentId":922,"name":"Oman","iso3":"OMN","iso2":"OM","locationTypeId":4,"locationType":"Country","longitude":55.9232559204,"latitude":21.5125827789},{"id":516,"parentId":913,"name":"Namibia","iso3":"NAM","iso2":null,"locationTypeId":4,"locationType":"Country","longitude":18.4904098511,"latitude":-22.9576396942},{"id":520,"parentId":954,"name":"Nauru","iso3":"NRU","iso2":"NR","locationTypeId":4,"locationType":"Country","longitude":166.9315032959,"latitude":-0.5227779746},{"id":524,"parentId":5501,"name":"Nepal","iso3":"NPL","iso2":"NP","locationTypeId":4,"locationType":"Country","longitude":84.1240081787,"latitude":28.3948574066},{"id":528,"parentId":926,"name":"Netherlands","iso3":"NLD","iso2":"NL","locationTypeId":4,"locationType":"Country","longitude":5.2912659645,"latitude":52.1326332092},{"id":531,"parentId":915,"name":"Cura\u00e7ao","iso3":"CUW","iso2":"CW","locationTypeId":4,"locationType":"Country","longitude":-68.990020752,"latitude":12.1695699692},{"id":533,"parentId":915,"name":"Aruba","iso3":"ABW","iso2":"AW","locationTypeId":4,"locationType":"Country","longitude":-69.9683380127,"latitude":12.521109581},{"id":534,"parentId":915,"name":"Sint Maarten (Dutch part)","iso3":"SXM","iso2":"SX","locationTypeId":4,"locationType":"Country","longitude":-63.0548286438,"latitude":18.0424804688},{"id":535,"parentId":915,"name":"Bonaire, Sint Eustatius and Saba","iso3":"BES","iso2":"BQ","locationTypeId":4,"locationType":"Country","longitude":-68.23853302,"latitude":12.178360939},{"id":540,"parentId":928,"name":"New Caledonia","iso3":"NCL","iso2":"NC","locationTypeId":4,"locationType":"Country","longitude":165.6180419922,"latitude":-20.9043045044},{"id":548,"parentId":928,"name":"Vanuatu","iso3":"VUT","iso2":"VU","locationTypeId":4,"locationType":"Country","longitude":166.9591522217,"latitude":-15.3767061234},{"id":554,"parentId":927,"name":"New Zealand","iso3":"NZL","iso2":"NZ","locationTypeId":4,"locationType":"Country","longitude":174.8859710693,"latitude":-40.9005584717},{"id":558,"parentId":916,"name":"Nicaragua","iso3":"NIC","iso2":"NI","locationTypeId":4,"locationType":"Country","longitude":-85.2072296143,"latitude":12.8654155731},{"id":562,"parentId":914,"name":"Niger","iso3":"NER","iso2":"NE","locationTypeId":4,"locationType":"Country","longitude":8.0816659927,"latitude":17.6077880859},{"id":566,"parentId":914,"name":"Nigeria","iso3":"NGA","iso2":"NG","locationTypeId":4,"locationType":"Country","longitude":8.6752767563,"latitude":9.0819988251},{"id":570,"parentId":957,"name":"Niue","iso3":"NIU","iso2":"NU","locationTypeId":4,"locationType":"Country","longitude":-169.8672332764,"latitude":-19.0544452667},{"id":578,"parentId":924,"name":"Norway","iso3":"NOR","iso2":"NO","locationTypeId":4,"locationType":"Country","longitude":8.4689464569,"latitude":60.4720230103},{"id":580,"parentId":954,"name":"Northern Mariana Islands","iso3":"MNP","iso2":"MP","locationTypeId":4,"locationType":"Country","longitude":145.6739044189,"latitude":15.0979003906},{"id":583,"parentId":954,"name":"Micronesia (Fed. States of)","iso3":"FSM","iso2":"FM","locationTypeId":4,"locationType":"Country","longitude":158.2150726318,"latitude":6.8874812126},{"id":584,"parentId":954,"name":"Marshall Islands","iso3":"MHL","iso2":"MH","locationTypeId":4,"locationType":"Country","longitude":171.9893798828,"latitude":6.0683016777},{"id":585,"parentId":954,"name":"Palau","iso3":"PLW","iso2":"PW","locationTypeId":4,"locationType":"Country","longitude":134.5825195312,"latitude":7.5149798393},{"id":586,"parentId":5501,"name":"Pakistan","iso3":"PAK","iso2":"PK","locationTypeId":4,"locationType":"Country","longitude":69.3451156616,"latitude":30.3753204346},{"id":591,"parentId":916,"name":"Panama","iso3":"PAN","iso2":"PA","locationTypeId":4,"locationType":"Country","longitude":-80.7821273804,"latitude":8.5379810333},{"id":598,"parentId":928,"name":"Papua New Guinea","iso3":"PNG","iso2":"PG","locationTypeId":4,"locationType":"Country","longitude":143.9555511475,"latitude":-6.3149929047},{"id":600,"parentId":931,"name":"Paraguay","iso3":"PRY","iso2":"PY","locationTypeId":4,"locationType":"Country","longitude":-58.4438323975,"latitude":-23.4425029755},{"id":604,"parentId":931,"name":"Peru","iso3":"PER","iso2":"PE","locationTypeId":4,"locationType":"Country","longitude":-75.0151519775,"latitude":-9.1899671555},{"id":608,"parentId":920,"name":"Philippines","iso3":"PHL","iso2":"PH","locationTypeId":4,"locationType":"Country","longitude":121.774017334,"latitude":12.8797206879},{"id":616,"parentId":923,"name":"Poland","iso3":"POL","iso2":"PL","locationTypeId":4,"locationType":"Country","longitude":19.1451358795,"latitude":51.9194374084},{"id":620,"parentId":925,"name":"Portugal","iso3":"PRT","iso2":"PT","locationTypeId":4,"locationType":"Country","longitude":-8.2244539261,"latitude":39.3998718262},{"id":624,"parentId":914,"name":"Guinea-Bissau","iso3":"GNB","iso2":"GW","locationTypeId":4,"locationType":"Country","longitude":-15.1804132462,"latitude":11.8037490845},{"id":626,"parentId":920,"name":"Timor-Leste","iso3":"TLS","iso2":"TL","locationTypeId":4,"locationType":"Country","longitude":125.7275390625,"latitude":-8.8742170334},{"id":630,"parentId":915,"name":"Puerto Rico","iso3":"PRI","iso2":"PR","locationTypeId":4,"locationType":"Country","longitude":-66.47373,"latitude":18.22964},{"id":634,"parentId":922,"name":"Qatar","iso3":"QAT","iso2":"QA","locationTypeId":4,"locationType":"Country","longitude":51.183883667,"latitude":25.3548259735},{"id":638,"parentId":910,"name":"R\u00e9union","iso3":"REU","iso2":"RE","locationTypeId":4,"locationType":"Country","longitude":55.5363845825,"latitude":-21.1151409149},{"id":642,"parentId":923,"name":"Romania","iso3":"ROU","iso2":"RO","locationTypeId":4,"locationType":"Country","longitude":24.9667606354,"latitude":45.9431610107},{"id":643,"parentId":923,"name":"Russian Federation","iso3":"RUS","iso2":"RU","locationTypeId":4,"locationType":"Country","longitude":105.3187561035,"latitude":61.5240097046},{"id":646,"parentId":910,"name":"Rwanda","iso3":"RWA","iso2":"RW","locationTypeId":4,"locationType":"Country","longitude":29.8738880157,"latitude":-1.9402780533},{"id":654,"parentId":914,"name":"Saint Helena","iso3":"SHN","iso2":"SH","locationTypeId":4,"locationType":"Country","longitude":-5.7115283012,"latitude":-15.9656000137},{"id":659,"parentId":915,"name":"Saint Kitts and Nevis","iso3":"KNA","iso2":"KN","locationTypeId":4,"locationType":"Country","longitude":-62.7829971313,"latitude":17.3578224182},{"id":660,"parentId":915,"name":"Anguilla","iso3":"AIA","iso2":"AI","locationTypeId":4,"locationType":"Country","longitude":-63.0686149597,"latitude":18.2205543518},{"id":662,"parentId":915,"name":"Saint Lucia","iso3":"LCA","iso2":"LC","locationTypeId":4,"locationType":"Country","longitude":-60.96665,"latitude":13.9066},{"id":666,"parentId":905,"name":"Saint Pierre and Miquelon","iso3":"SPM","iso2":"PM","locationTypeId":4,"locationType":"Country","longitude":-56.3158988953,"latitude":46.8852005005},{"id":670,"parentId":915,"name":"Saint Vincent and the Grenadines","iso3":"VCT","iso2":"VC","locationTypeId":4,"locationType":"Country","longitude":-61.19134,"latitude":13.24775},{"id":674,"parentId":925,"name":"San Marino","iso3":"SMR","iso2":"SM","locationTypeId":4,"locationType":"Country","longitude":12.4577770233,"latitude":43.9423599243},{"id":678,"parentId":911,"name":"Sao Tome and Principe","iso3":"STP","iso2":"ST","locationTypeId":4,"locationType":"Country","longitude":6.6130809784,"latitude":0.1863600016},{"id":682,"parentId":922,"name":"Saudi Arabia","iso3":"SAU","iso2":"SA","locationTypeId":4,"locationType":"Country","longitude":45.0791625977,"latitude":23.8859424591},{"id":686,"parentId":914,"name":"Senegal","iso3":"SEN","iso2":"SN","locationTypeId":4,"locationType":"Country","longitude":-14.4523620605,"latitude":14.4974012375},{"id":688,"parentId":925,"name":"Serbia","iso3":"SRB","iso2":"RS","locationTypeId":4,"locationType":"Country","longitude":21.005859375,"latitude":44.0165214539},{"id":690,"parentId":910,"name":"Seychelles","iso3":"SYC","iso2":"SC","locationTypeId":4,"locationType":"Country","longitude":55.4919776917,"latitude":-4.6795740128},{"id":694,"parentId":914,"name":"Sierra Leone","iso3":"SLE","iso2":"SL","locationTypeId":4,"locationType":"Country","longitude":-11.7798891068,"latitude":8.4605550766},{"id":702,"parentId":920,"name":"Singapore","iso3":"SGP","iso2":"SG","locationTypeId":4,"locationType":"Country","longitude":103.8198394775,"latitude":1.3520829678},{"id":703,"parentId":923,"name":"Slovakia","iso3":"SVK","iso2":"SK","locationTypeId":4,"locationType":"Country","longitude":19.6990242004,"latitude":48.6690254211},{"id":704,"parentId":920,"name":"Viet Nam","iso3":"VNM","iso2":"VN","locationTypeId":4,"locationType":"Country","longitude":108.2771987915,"latitude":14.0583238602},{"id":705,"parentId":925,"name":"Slovenia","iso3":"SVN","iso2":"SI","locationTypeId":4,"locationType":"Country","longitude":14.9954633713,"latitude":46.1512413025},{"id":706,"parentId":910,"name":"Somalia","iso3":"SOM","iso2":"SO","locationTypeId":4,"locationType":"Country","longitude":46.1996154785,"latitude":5.1521492004},{"id":710,"parentId":913,"name":"South Africa","iso3":"ZAF","iso2":"ZA","locationTypeId":4,"locationType":"Country","longitude":22.937505722,"latitude":-30.5594825745},{"id":716,"parentId":910,"name":"Zimbabwe","iso3":"ZWE","iso2":"ZW","locationTypeId":4,"locationType":"Country","longitude":29.1548576355,"latitude":-19.0154380798},{"id":724,"parentId":925,"name":"Spain","iso3":"ESP","iso2":"ES","locationTypeId":4,"locationType":"Country","longitude":-3.7492198944,"latitude":40.4636688232},{"id":728,"parentId":910,"name":"South Sudan","iso3":"SSD","iso2":"SS","locationTypeId":4,"locationType":"Country","longitude":31.3069782257,"latitude":6.8769917488},{"id":729,"parentId":912,"name":"Sudan","iso3":"SDN","iso2":"SD","locationTypeId":4,"locationType":"Country","longitude":30.2176361084,"latitude":12.8628072739},{"id":732,"parentId":912,"name":"Western Sahara","iso3":"ESH","iso2":"EH","locationTypeId":4,"locationType":"Country","longitude":-12.8858337402,"latitude":24.2155265808},{"id":740,"parentId":931,"name":"Suriname","iso3":"SUR","iso2":"SR","locationTypeId":4,"locationType":"Country","longitude":-56.0277824402,"latitude":3.9193050861},{"id":748,"parentId":913,"name":"Eswatini","iso3":"SWZ","iso2":"SZ","locationTypeId":4,"locationType":"Country","longitude":31.4658660889,"latitude":-26.5225028992},{"id":752,"parentId":924,"name":"Sweden","iso3":"SWE","iso2":"SE","locationTypeId":4,"locationType":"Country","longitude":18.6435012817,"latitude":60.128162384},{"id":756,"parentId":926,"name":"Switzerland","iso3":"CHE","iso2":"CH","locationTypeId":4,"locationType":"Country","longitude":8.2275123596,"latitude":46.8181877136},{"id":760,"parentId":922,"name":"Syrian Arab Republic","iso3":"SYR","iso2":"SY","locationTypeId":4,"locationType":"Country","longitude":38.9968147278,"latitude":34.8020744324},{"id":762,"parentId":5500,"name":"Tajikistan","iso3":"TJK","iso2":"TJ","locationTypeId":4,"locationType":"Country","longitude":71.2760925293,"latitude":38.8610343933},{"id":764,"parentId":920,"name":"Thailand","iso3":"THA","iso2":"TH","locationTypeId":4,"locationType":"Country","longitude":100.9925384521,"latitude":15.8700323105},{"id":768,"parentId":914,"name":"Togo","iso3":"TGO","iso2":"TG","locationTypeId":4,"locationType":"Country","longitude":0.8247820139,"latitude":8.6195430756},{"id":772,"parentId":957,"name":"Tokelau","iso3":"TKL","iso2":"TK","locationTypeId":4,"locationType":"Country","longitude":-171.8484039307,"latitude":-9.2002000809},{"id":776,"parentId":957,"name":"Tonga","iso3":"TON","iso2":"TO","locationTypeId":4,"locationType":"Country","longitude":-175.1982421875,"latitude":-21.1789855957},{"id":780,"parentId":915,"name":"Trinidad and Tobago","iso3":"TTO","iso2":"TT","locationTypeId":4,"locationType":"Country","longitude":-61.2225036621,"latitude":10.6918029785},{"id":784,"parentId":922,"name":"United Arab Emirates","iso3":"ARE","iso2":"AE","locationTypeId":4,"locationType":"Country","longitude":53.8478164673,"latitude":23.4240760803},{"id":788,"parentId":912,"name":"Tunisia","iso3":"TUN","iso2":"TN","locationTypeId":4,"locationType":"Country","longitude":9.5374994278,"latitude":33.8869171143},{"id":792,"parentId":922,"name":"T\u00fcrkiye","iso3":"TUR","iso2":"TR","locationTypeId":4,"locationType":"Country","longitude":35.2433204651,"latitude":38.9637451172},{"id":795,"parentId":5500,"name":"Turkmenistan","iso3":"TKM","iso2":"TM","locationTypeId":4,"locationType":"Country","longitude":59.5562782288,"latitude":38.9697189331},{"id":796,"parentId":915,"name":"Turks and Caicos Islands","iso3":"TCA","iso2":"TC","locationTypeId":4,"locationType":"Country","longitude":-71.7979278564,"latitude":21.6940250397},{"id":798,"parentId":957,"name":"Tuvalu","iso3":"TUV","iso2":"TV","locationTypeId":4,"locationType":"Country","longitude":178.6799163818,"latitude":-7.4784207344},{"id":800,"parentId":910,"name":"Uganda","iso3":"UGA","iso2":"UG","locationTypeId":4,"locationType":"Country","longitude":32.2902755737,"latitude":1.3733329773},{"id":804,"parentId":923,"name":"Ukraine","iso3":"UKR","iso2":"UA","locationTypeId":4,"locationType":"Country","longitude":31.1655807495,"latitude":48.3794326782},{"id":807,"parentId":925,"name":"North Macedonia","iso3":"MKD","iso2":"MK","locationTypeId":4,"locationType":"Country","longitude":21.7452754974,"latitude":41.6086349487},{"id":818,"parentId":912,"name":"Egypt","iso3":"EGY","iso2":"EG","locationTypeId":4,"locationType":"Country","longitude":30.8024978638,"latitude":26.8205528259},{"id":826,"parentId":924,"name":"United Kingdom","iso3":"GBR","iso2":"GB","locationTypeId":4,"locationType":"Country","longitude":-3.435972929,"latitude":55.3780517578},{"id":833,"parentId":924,"name":"Isle of Man","iso3":"IMN","iso2":"IM","locationTypeId":4,"locationType":"Country","longitude":-4.5480561256,"latitude":54.2361068726},{"id":834,"parentId":910,"name":"United Republic of Tanzania","iso3":"TZA","iso2":"TZ","locationTypeId":4,"locationType":"Country","longitude":34.8888206482,"latitude":-6.3690280914},{"id":840,"parentId":905,"name":"United States of America","iso3":"USA","iso2":"US","locationTypeId":4,"locationType":"Country","longitude":-95.712890625,"latitude":37.0902404785},{"id":850,"parentId":915,"name":"United States Virgin Islands","iso3":"VIR","iso2":"VI","locationTypeId":4,"locationType":"Country","longitude":-64.77552,"latitude":17.74046},{"id":854,"parentId":914,"name":"Burkina Faso","iso3":"BFA","iso2":"BF","locationTypeId":4,"locationType":"Country","longitude":-1.5615930557,"latitude":12.2383327484},{"id":858,"parentId":931,"name":"Uruguay","iso3":"URY","iso2":"UY","locationTypeId":4,"locationType":"Country","longitude":-55.7658348083,"latitude":-32.5227775574},{"id":860,"parentId":5500,"name":"Uzbekistan","iso3":"UZB","iso2":"UZ","locationTypeId":4,"locationType":"Country","longitude":64.5852584839,"latitude":41.3774909973},{"id":862,"parentId":931,"name":"Venezuela (Bolivarian Republic of)","iso3":"VEN","iso2":"VE","locationTypeId":4,"locationType":"Country","longitude":-66.5897293091,"latitude":6.4237499237},{"id":876,"parentId":957,"name":"Wallis and Futuna Islands","iso3":"WLF","iso2":"WF","locationTypeId":4,"locationType":"Country","longitude":-178.1165008545,"latitude":-14.293800354},{"id":882,"parentId":957,"name":"Samoa","iso3":"WSM","iso2":"WS","locationTypeId":4,"locationType":"Country","longitude":-172.1046295166,"latitude":-13.7590293884},{"id":887,"parentId":922,"name":"Yemen","iso3":"YEM","iso2":"YE","locationTypeId":4,"locationType":"Country","longitude":48.5163879395,"latitude":15.5527267456},{"id":894,"parentId":910,"name":"Zambia","iso3":"ZMB","iso2":"ZM","locationTypeId":4,"locationType":"Country","longitude":27.8493328094,"latitude":-13.1338968277},{"id":901,"parentId":1400,"name":"Developed regions","iso3":"RDD","iso2":"RD","locationTypeId":14,"locationType":"UN Development Groups","longitude":null,"latitude":null},{"id":902,"parentId":1400,"name":"Developing regions","iso3":"DGR","iso2":"DR","locationTypeId":14,"locationType":"UN Development Groups","longitude":null,"latitude":null},{"id":903,"parentId":900,"name":"Africa","iso3":"AFR","iso2":"A9","locationTypeId":2,"locationType":"Region","longitude":null,"latitude":null},{"id":904,"parentId":900,"name":"Latin America and the Caribbean","iso3":"LCN","iso2":"ZJ","locationTypeId":2,"locationType":"Region","longitude":null,"latitude":null},{"id":905,"parentId":900,"name":"Northern America","iso3":"NAC","iso2":"XU","locationTypeId":2,"locationType":"Region","longitude":null,"latitude":null},{"id":906,"parentId":935,"name":"Eastern Asia","iso3":"EAA","iso2":"EA","locationTypeId":3,"locationType":"Sub-region","longitude":null,"latitude":null},{"id":908,"parentId":900,"name":"Europe","iso3":"EUR","iso2":"EP","locationTypeId":2,"locationType":"Region","longitude":null,"latitude":null},{"id":909,"parentId":900,"name":"Oceania","iso3":"OCE","iso2":"OA","locationTypeId":2,"locationType":"Region","longitude":null,"latitude":null},{"id":910,"parentId":903,"name":"Eastern Africa","iso3":"EAF","iso2":"EF","locationTypeId":3,"locationType":"Sub-region","longitude":null,"latitude":null},{"id":911,"parentId":903,"name":"Middle Africa","iso3":"MIA","iso2":"AP","locationTypeId":3,"locationType":"Sub-region","longitude":null,"latitude":null},{"id":912,"parentId":903,"name":"Northern Africa","iso3":"NAF","iso2":"M2","locationTypeId":3,"locationType":"Sub-region","longitude":null,"latitude":null},{"id":913,"parentId":903,"name":"Southern Africa","iso3":"SAF","iso2":"SF","locationTypeId":3,"locationType":"Sub-region","longitude":null,"latitude":null},{"id":914,"parentId":903,"name":"Western Africa","iso3":"WAF","iso2":"WA","locationTypeId":3,"locationType":"Sub-region","longitude":null,"latitude":null},{"id":915,"parentId":904,"name":"Caribbean","iso3":"CAR","iso2":"CB","locationTypeId":3,"locationType":"Sub-region","longitude":null,"latitude":null},{"id":916,"parentId":904,"name":"Central America","iso3":"MCA","iso2":"L6","locationTypeId":3,"locationType":"Sub-region","longitude":null,"latitude":null},{"id":920,"parentId":935,"name":"South-Eastern Asia","iso3":"SEA","iso2":"SQ","locationTypeId":3,"locationType":"Sub-region","longitude":null,"latitude":null},{"id":922,"parentId":935,"name":"Western Asia","iso3":"WAS","iso2":"WB","locationTypeId":3,"locationType":"Sub-region","longitude":null,"latitude":null},{"id":923,"parentId":908,"name":"Eastern Europe","iso3":"EEU","iso2":"EO","locationTypeId":3,"locationType":"Sub-region","longitude":null,"latitude":null},{"id":924,"parentId":908,"name":"Northern Europe","iso3":"NEU","iso2":"NB","locationTypeId":3,"locationType":"Sub-region","longitude":null,"latitude":null},{"id":925,"parentId":908,"name":"Southern Europe","iso3":"SEU","iso2":"ED","locationTypeId":3,"locationType":"Sub-region","longitude":null,"latitude":null},{"id":926,"parentId":908,"name":"Western Europe","iso3":"WEU","iso2":"WU","locationTypeId":3,"locationType":"Sub-region","longitude":null,"latitude":null},{"id":927,"parentId":909,"name":"Australia\/New Zealand","iso3":"ANZ","iso2":"ZL","locationTypeId":3,"locationType":"Sub-region","longitude":null,"latitude":null},{"id":928,"parentId":909,"name":"Melanesia","iso3":"MEL","iso2":"MB","locationTypeId":3,"locationType":"Sub-region","longitude":null,"latitude":null},{"id":931,"parentId":904,"name":"South America","iso3":"SAM","iso2":"AJ","locationTypeId":3,"locationType":"Sub-region","longitude":null,"latitude":null},{"id":934,"parentId":902,"name":"Other developing regions","iso3":"ODR","iso2":"OD","locationTypeId":14,"locationType":"UN Development Groups","longitude":null,"latitude":null},{"id":935,"parentId":900,"name":"Asia","iso3":"ASI","iso2":"AA","locationTypeId":2,"locationType":"Region","longitude":null,"latitude":null},{"id":941,"parentId":1828,"name":"Least developed countries","iso3":"LDC","iso2":"XL","locationTypeId":14,"locationType":"UN Development Groups","longitude":null,"latitude":null},{"id":941,"parentId":902,"name":"Least developed countries","iso3":"LDC","iso2":"XL","locationTypeId":14,"locationType":"UN Development Groups","longitude":null,"latitude":null},{"id":947,"parentId":1828,"name":"Sub-Saharan Africa","iso3":"ASS","iso2":"AH","locationTypeId":15,"locationType":"SDG Regions","longitude":null,"latitude":null},{"id":954,"parentId":909,"name":"Micronesia","iso3":"MCN","iso2":"MJ","locationTypeId":3,"locationType":"Sub-region","longitude":null,"latitude":null},{"id":957,"parentId":909,"name":"Polynesia","iso3":"PLY","iso2":"PO","locationTypeId":3,"locationType":"Sub-region","longitude":null,"latitude":null},{"id":1500,"parentId":1802,"name":"Low-income countries","iso3":"LIC","iso2":"XM","locationTypeId":13,"locationType":"World Bank Income Groups","longitude":null,"latitude":null},{"id":1501,"parentId":1505,"name":"Lower-middle-income countries","iso3":"LMC","iso2":"XN","locationTypeId":13,"locationType":"World Bank Income Groups","longitude":null,"latitude":null},{"id":1502,"parentId":1505,"name":"Upper-middle-income countries","iso3":"UMC","iso2":"XT","locationTypeId":13,"locationType":"World Bank Income Groups","longitude":null,"latitude":null},{"id":1503,"parentId":1802,"name":"High-income countries","iso3":"HIC","iso2":"XD","locationTypeId":13,"locationType":"World Bank Income Groups","longitude":null,"latitude":null},{"id":1505,"parentId":1802,"name":"Middle-income countries","iso3":"MIC","iso2":"M3","locationTypeId":13,"locationType":"World Bank Income Groups","longitude":null,"latitude":null},{"id":1518,"parentId":1802,"name":"No income group available","iso3":"NIG","iso2":"N0","locationTypeId":13,"locationType":"World Bank Income Groups","longitude":null,"latitude":null},{"id":1829,"parentId":1828,"name":"Europe and Northern America","iso3":"ENA","iso2":"EN","locationTypeId":15,"locationType":"SDG Regions","longitude":null,"latitude":null},{"id":1830,"parentId":1828,"name":"Latin America and the Caribbean","iso3":"ALC","iso2":"AC","locationTypeId":15,"locationType":"SDG Regions","longitude":null,"latitude":null},{"id":1831,"parentId":1828,"name":"Central and Southern Asia","iso3":"ACS","iso2":"CE","locationTypeId":15,"locationType":"SDG Regions","longitude":null,"latitude":null},{"id":1832,"parentId":1828,"name":"Eastern and South-Eastern Asia","iso3":"ESA","iso2":"EB","locationTypeId":15,"locationType":"SDG Regions","longitude":null,"latitude":null},{"id":1833,"parentId":1828,"name":"Northern Africa and Western Asia","iso3":"NAW","iso2":"NW","locationTypeId":15,"locationType":"SDG Regions","longitude":null,"latitude":null},{"id":1834,"parentId":1828,"name":"Australia\/New Zealand","iso3":"ANZ","iso2":"ZL","locationTypeId":15,"locationType":"SDG Regions","longitude":null,"latitude":null},{"id":1835,"parentId":1828,"name":"Oceania (excluding Australia and New Zealand)","iso3":"OCA","iso2":"OZ","locationTypeId":15,"locationType":"SDG Regions","longitude":null,"latitude":null},{"id":5500,"parentId":935,"name":"Central Asia","iso3":"CAS","iso2":"CJ","locationTypeId":3,"locationType":"Sub-region","longitude":null,"latitude":null},{"id":5501,"parentId":935,"name":"Southern Asia","iso3":"SAS","iso2":"8S","locationTypeId":3,"locationType":"Sub-region","longitude":null,"latitude":null}]